{
"type": "FeatureCollection",
"name": "drk_p",
"crs": { "type": "name", "properties": { "name": "urn:ogc:def:crs:OGC:1.3:CRS84" } },
"features": [
{ "type": "Feature", "properties": { "NAME": "지하철 1,7호선 도봉산역 2번출구", "FOLDERPATH": "7.kmz", "SYMBOLID": 0, "ALTMODE": -1, "BASE": 0.0, "SNIPPET": null, "POPUPINFO": null, "HASLABEL": -1, "LABELID": 0 }, "geometry": { "type": "Point", "coordinates": [ 127.046637060999956, 37.688945299000011, 0.0 ] } },
{ "type": "Feature", "properties": { "NAME": "서울창포원", "FOLDERPATH": "7.kmz", "SYMBOLID": 1, "ALTMODE": -1, "BASE": 0.0, "SNIPPET": null, "POPUPINFO": null, "HASLABEL": -1, "LABELID": 0 }, "geometry": { "type": "Point", "coordinates": [ 127.048068945999944, 37.689453452, 0.0 ] } },
{ "type": "Feature", "properties": { "NAME": "덕릉고개", "FOLDERPATH": "7.kmz", "SYMBOLID": 2, "ALTMODE": -1, "BASE": 0.0, "SNIPPET": null, "POPUPINFO": null, "HASLABEL": -1, "LABELID": 0 }, "geometry": { "type": "Point", "coordinates": [ 127.092414901999973, 37.677289299, 0.0 ] } },
{ "type": "Feature", "properties": { "NAME": "넓은마당", "FOLDERPATH": "7.kmz", "SYMBOLID": 3, "ALTMODE": -1, "BASE": 0.0, "SNIPPET": null, "POPUPINFO": null, "HASLABEL": -1, "LABELID": 0 }, "geometry": { "type": "Point", "coordinates": [ 127.083410018, 37.667311686, 0.0 ] } },
{ "type": "Feature", "properties": { "NAME": "경수사", "FOLDERPATH": "7.kmz", "SYMBOLID": 4, "ALTMODE": -1, "BASE": 0.0, "SNIPPET": null, "POPUPINFO": null, "HASLABEL": -1, "LABELID": 0 }, "geometry": { "type": "Point", "coordinates": [ 127.084455405999961, 37.666727195000021, 0.0 ] } },
{ "type": "Feature", "properties": { "NAME": "성관사", "FOLDERPATH": "7.kmz", "SYMBOLID": 5, "ALTMODE": -1, "BASE": 0.0, "SNIPPET": null, "POPUPINFO": null, "HASLABEL": -1, "LABELID": 0 }, "geometry": { "type": "Point", "coordinates": [ 127.080105211000046, 37.662901276000014, 0.0 ] } },
{ "type": "Feature", "properties": { "NAME": "넓적바위", "FOLDERPATH": "7.kmz", "SYMBOLID": 6, "ALTMODE": -1, "BASE": 0.0, "SNIPPET": null, "POPUPINFO": null, "HASLABEL": -1, "LABELID": 0 }, "geometry": { "type": "Point", "coordinates": [ 127.086849994999966, 37.650928274000023, 0.0 ] } },
{ "type": "Feature", "properties": { "NAME": "태릉", "FOLDERPATH": "7.kmz", "SYMBOLID": 7, "ALTMODE": -1, "BASE": 0.0, "SNIPPET": null, "POPUPINFO": null, "HASLABEL": -1, "LABELID": 0 }, "geometry": { "type": "Point", "coordinates": [ 127.09251709, 37.636881669, 0.0 ] } },
{ "type": "Feature", "properties": { "NAME": "지하철 6호선 화랑대역 4번출구", "FOLDERPATH": "7.kmz", "SYMBOLID": 0, "ALTMODE": -1, "BASE": 0.0, "SNIPPET": null, "POPUPINFO": null, "HASLABEL": -1, "LABELID": 0 }, "geometry": { "type": "Point", "coordinates": [ 127.084353814999986, 37.620520659000022, 0.0 ] } },
{ "type": "Feature", "properties": { "NAME": "수암사", "FOLDERPATH": "7.kmz", "SYMBOLID": 8, "ALTMODE": -1, "BASE": 0.0, "SNIPPET": null, "POPUPINFO": null, "HASLABEL": -1, "LABELID": 0 }, "geometry": { "type": "Point", "coordinates": [ 127.092445583999961, 37.684706633000019, 0.0 ] } },
{ "type": "Feature", "properties": { "NAME": "학도암", "FOLDERPATH": "7.kmz", "SYMBOLID": 8, "ALTMODE": -1, "BASE": 0.0, "SNIPPET": null, "POPUPINFO": null, "HASLABEL": -1, "LABELID": 0 }, "geometry": { "type": "Point", "coordinates": [ 127.091249435, 37.652786471000013, 0.0 ] } },
{ "type": "Feature", "properties": { "NAME": "지하철 4호선 당고개역", "FOLDERPATH": "7.kmz", "SYMBOLID": 0, "ALTMODE": -1, "BASE": 0.0, "SNIPPET": null, "POPUPINFO": "3번 출구", "HASLABEL": -1, "LABELID": 0 }, "geometry": { "type": "Point", "coordinates": [ 127.079167805999987, 37.670331842, 0.0 ] } },
{ "type": "Feature", "properties": { "NAME": "지하철 7호선 수락산역", "FOLDERPATH": "7.kmz", "SYMBOLID": 0, "ALTMODE": -1, "BASE": 0.0, "SNIPPET": null, "POPUPINFO": "3번 출구", "HASLABEL": -1, "LABELID": 0 }, "geometry": { "type": "Point", "coordinates": [ 127.055274739999959, 37.678116100000011, 0.0 ] } },
{ "type": "Feature", "properties": { "NAME": "1-1코스 창포원 관리사무소 앞", "FOLDERPATH": "7.kmz", "SYMBOLID": 9, "ALTMODE": -1, "BASE": 0.0, "SNIPPET": null, "POPUPINFO": null, "HASLABEL": -1, "LABELID": 0 }, "geometry": { "type": "Point", "coordinates": [ 127.046942841000032, 37.689245490000019, 0.0 ] } },
{ "type": "Feature", "properties": { "NAME": "코스 1-2 불암산 우회코스 갈림길", "FOLDERPATH": "7.kmz", "SYMBOLID": 9, "ALTMODE": -1, "BASE": 0.0, "SNIPPET": null, "POPUPINFO": null, "HASLABEL": -1, "LABELID": 0 }, "geometry": { "type": "Point", "coordinates": [ 127.083669490000034, 37.668396141000017, 0.0 ] } },
{ "type": "Feature", "properties": { "NAME": "1-3\/2-1 화랑대 4번 출구 앞 공원", "FOLDERPATH": "7.kmz\/1-3", "SYMBOLID": 9, "ALTMODE": -1, "BASE": 0.0, "SNIPPET": null, "POPUPINFO": null, "HASLABEL": -1, "LABELID": 0 }, "geometry": { "type": "Point", "coordinates": [ 127.084968404000051, 37.620481214, 0.0 ] } },
{ "type": "Feature", "properties": { "NAME": "지하철 6호선 화랑대역 4번출구", "FOLDERPATH": "8.kmz", "SYMBOLID": 0, "ALTMODE": -1, "BASE": 0.0, "SNIPPET": null, "POPUPINFO": null, "HASLABEL": -1, "LABELID": 0 }, "geometry": { "type": "Point", "coordinates": [ 127.084194318999948, 37.620483254000021, 0.0 ] } },
{ "type": "Feature", "properties": { "NAME": "중랑캠핑숲", "FOLDERPATH": "8.kmz", "SYMBOLID": 1, "ALTMODE": -1, "BASE": 0.0, "SNIPPET": null, "POPUPINFO": null, "HASLABEL": -1, "LABELID": 0 }, "geometry": { "type": "Point", "coordinates": [ 127.109877894999954, 37.604590163000012, 0.0 ] } },
{ "type": "Feature", "properties": { "NAME": "망우묘지공원", "FOLDERPATH": "8.kmz", "SYMBOLID": 2, "ALTMODE": -1, "BASE": 0.0, "SNIPPET": null, "POPUPINFO": null, "HASLABEL": -1, "LABELID": 0 }, "geometry": { "type": "Point", "coordinates": [ 127.114331049000043, 37.598701595000023, 0.0 ] } },
{ "type": "Feature", "properties": { "NAME": "해맞이광장", "FOLDERPATH": "8.kmz", "SYMBOLID": 3, "ALTMODE": -1, "BASE": 0.0, "SNIPPET": null, "POPUPINFO": null, "HASLABEL": -1, "LABELID": 0 }, "geometry": { "type": "Point", "coordinates": [ 127.101616071999956, 37.560012167000025, 0.0 ] } },
{ "type": "Feature", "properties": { "NAME": "아차산생태공원", "FOLDERPATH": "8.kmz", "SYMBOLID": 4, "ALTMODE": -1, "BASE": 0.0, "SNIPPET": null, "POPUPINFO": null, "HASLABEL": -1, "LABELID": 0 }, "geometry": { "type": "Point", "coordinates": [ 127.10006956899997, 37.551763567000023, 0.0 ] } },
{ "type": "Feature", "properties": { "NAME": "지하철 5호선 광나루역 1번출구", "FOLDERPATH": "8.kmz", "SYMBOLID": 0, "ALTMODE": -1, "BASE": 0.0, "SNIPPET": null, "POPUPINFO": null, "HASLABEL": -1, "LABELID": 0 }, "geometry": { "type": "Point", "coordinates": [ 127.10416921, 37.545324658000027, 0.0 ] } },
{ "type": "Feature", "properties": { "NAME": "아차산 4보루 성터", "FOLDERPATH": "8.kmz", "SYMBOLID": 5, "ALTMODE": -1, "BASE": 0.0, "SNIPPET": null, "POPUPINFO": null, "HASLABEL": -1, "LABELID": 0 }, "geometry": { "type": "Point", "coordinates": [ 127.106238629000018, 37.572660367000026, 0.0 ] } },
{ "type": "Feature", "properties": { "NAME": "아차산성", "FOLDERPATH": "8.kmz", "SYMBOLID": 5, "ALTMODE": -1, "BASE": 0.0, "SNIPPET": null, "POPUPINFO": null, "HASLABEL": -1, "LABELID": 0 }, "geometry": { "type": "Point", "coordinates": [ 127.10417071400002, 37.553230193, 0.0 ] } },
{ "type": "Feature", "properties": { "NAME": "양원역 2번 출구", "FOLDERPATH": "8.kmz", "SYMBOLID": 0, "ALTMODE": -1, "BASE": 0.0, "SNIPPET": null, "POPUPINFO": null, "HASLABEL": -1, "LABELID": 0 }, "geometry": { "type": "Point", "coordinates": [ 127.107978599000035, 37.606520435999983, 0.0 ] } },
{ "type": "Feature", "properties": { "NAME": "코스 1-3 \/ 2-1 화랑대역 4번 출구 앞 공원", "FOLDERPATH": "8.kmz\/코스 1-3", "SYMBOLID": 6, "ALTMODE": -1, "BASE": 0.0, "SNIPPET": null, "POPUPINFO": null, "HASLABEL": -1, "LABELID": 0 }, "geometry": { "type": "Point", "coordinates": [ 127.08493997000005, 37.620462853, 0.0 ] } },
{ "type": "Feature", "properties": { "NAME": "코스 2-2 용마산 깔딱고개 쉼터", "FOLDERPATH": "8.kmz", "SYMBOLID": 6, "ALTMODE": -1, "BASE": 0.0, "SNIPPET": null, "POPUPINFO": null, "HASLABEL": -1, "LABELID": 0 }, "geometry": { "type": "Point", "coordinates": [ 127.106903216999967, 37.587952159, 0.0 ] } },
{ "type": "Feature", "properties": { "NAME": "코스 2-3 아차산 관리사무소 앞", "FOLDERPATH": "8.kmz", "SYMBOLID": 6, "ALTMODE": -1, "BASE": 0.0, "SNIPPET": null, "POPUPINFO": null, "HASLABEL": -1, "LABELID": 0 }, "geometry": { "type": "Point", "coordinates": [ 127.099790703000053, 37.552431281999986, 0.0 ] } },
{ "type": "Feature", "properties": { "NAME": "광나루역 2번출구", "FOLDERPATH": "3코스 스탬프\/강남전체", "SYMBOLID": 0, "ALTMODE": -1, "BASE": 0.0, "SNIPPET": null, "POPUPINFO": null, "HASLABEL": 0, "LABELID": -1 }, "geometry": { "type": "Point", "coordinates": [ 127.104447791999974, 37.545357914000022, 0.0 ] } },
{ "type": "Feature", "properties": { "NAME": "한강공원 광나루지구", "FOLDERPATH": "3코스 스탬프\/강남전체", "SYMBOLID": 1, "ALTMODE": -1, "BASE": 0.0, "SNIPPET": null, "POPUPINFO": null, "HASLABEL": 0, "LABELID": -1 }, "geometry": { "type": "Point", "coordinates": [ 127.121918765000032, 37.551194028, 0.0 ] } },
{ "type": "Feature", "properties": { "NAME": "암사동선사주거지", "FOLDERPATH": "3코스 스탬프\/강남전체", "SYMBOLID": 2, "ALTMODE": -1, "BASE": 0.0, "SNIPPET": null, "POPUPINFO": null, "HASLABEL": 0, "LABELID": -1 }, "geometry": { "type": "Point", "coordinates": [ 127.130020141000045, 37.560563186000024, 0.0 ] } },
{ "type": "Feature", "properties": { "NAME": "샘터공원", "FOLDERPATH": "3코스 스탬프\/강남전체", "SYMBOLID": 3, "ALTMODE": -1, "BASE": 0.0, "SNIPPET": null, "POPUPINFO": null, "HASLABEL": 0, "LABELID": -1 }, "geometry": { "type": "Point", "coordinates": [ 127.159378664999963, 37.561944213, 0.0 ] } },
{ "type": "Feature", "properties": { "NAME": "명일공원", "FOLDERPATH": "3코스 스탬프\/강남전체", "SYMBOLID": 4, "ALTMODE": -1, "BASE": 0.0, "SNIPPET": null, "POPUPINFO": null, "HASLABEL": 0, "LABELID": -1 }, "geometry": { "type": "Point", "coordinates": [ 127.159917848999953, 37.553860989999976, 0.0 ] } },
{ "type": "Feature", "properties": { "NAME": "길동자연생태공원", "FOLDERPATH": "3코스 스탬프\/강남전체", "SYMBOLID": 5, "ALTMODE": -1, "BASE": 0.0, "SNIPPET": null, "POPUPINFO": null, "HASLABEL": 0, "LABELID": -1 }, "geometry": { "type": "Point", "coordinates": [ 127.153917332, 37.539670032, 0.0 ] } },
{ "type": "Feature", "properties": { "NAME": "일자산허브천문공원", "FOLDERPATH": "3코스 스탬프\/강남전체", "SYMBOLID": 6, "ALTMODE": -1, "BASE": 0.0, "SNIPPET": null, "POPUPINFO": null, "HASLABEL": 0, "LABELID": -1 }, "geometry": { "type": "Point", "coordinates": [ 127.154386454000019, 37.537246002000018, 0.0 ] } },
{ "type": "Feature", "properties": { "NAME": "올림픽공원", "FOLDERPATH": "3코스 스탬프\/강남전체", "SYMBOLID": 7, "ALTMODE": -1, "BASE": 0.0, "SNIPPET": null, "POPUPINFO": null, "HASLABEL": 0, "LABELID": -1 }, "geometry": { "type": "Point", "coordinates": [ 127.127271104999977, 37.51801653299998, 0.0 ] } },
{ "type": "Feature", "properties": { "NAME": "방이동 생태경관보전지역", "FOLDERPATH": "3코스 스탬프\/강남전체", "SYMBOLID": 8, "ALTMODE": -1, "BASE": 0.0, "SNIPPET": null, "POPUPINFO": null, "HASLABEL": 0, "LABELID": -1 }, "geometry": { "type": "Point", "coordinates": [ 127.138959655, 37.511904373999982, 0.0 ] } },
{ "type": "Feature", "properties": { "NAME": "문정근린공원", "FOLDERPATH": "3코스 스탬프\/강남전체", "SYMBOLID": 9, "ALTMODE": -1, "BASE": 0.0, "SNIPPET": null, "POPUPINFO": null, "HASLABEL": 0, "LABELID": -1 }, "geometry": { "type": "Point", "coordinates": [ 127.132877503000032, 37.489448406, 0.0 ] } },
{ "type": "Feature", "properties": { "NAME": "가든파이브", "FOLDERPATH": "3코스 스탬프\/강남전체", "SYMBOLID": 10, "ALTMODE": -1, "BASE": 0.0, "SNIPPET": null, "POPUPINFO": null, "HASLABEL": 0, "LABELID": -1 }, "geometry": { "type": "Point", "coordinates": [ 127.125034387000028, 37.477625124999975, 0.0 ] } },
{ "type": "Feature", "properties": { "NAME": "수서역 5번출구", "FOLDERPATH": "3코스 스탬프\/강남전체", "SYMBOLID": 0, "ALTMODE": -1, "BASE": 0.0, "SNIPPET": null, "POPUPINFO": null, "HASLABEL": 0, "LABELID": -1 }, "geometry": { "type": "Point", "coordinates": [ 127.102374648000023, 37.48723672, 0.0 ] } },
{ "type": "Feature", "properties": { "NAME": "고덕역 4번출구", "FOLDERPATH": "3코스 스탬프\/강남전체", "SYMBOLID": 11, "ALTMODE": -1, "BASE": 0.0, "SNIPPET": null, "POPUPINFO": null, "HASLABEL": -1, "LABELID": 0 }, "geometry": { "type": "Point", "coordinates": [ 127.154413966, 37.55520938, 0.0 ] } },
{ "type": "Feature", "properties": { "NAME": "금천구청역", "FOLDERPATH": "3.kmz", "SYMBOLID": 0, "ALTMODE": -1, "BASE": 0.0, "SNIPPET": null, "POPUPINFO": null, "HASLABEL": -1, "LABELID": 0 }, "geometry": { "type": "Point", "coordinates": [ 126.894854528, 37.455738812999982, 0.0 ] } },
{ "type": "Feature", "properties": { "NAME": "지하철 9호선 가양역 4번출구", "FOLDERPATH": "둘레길 7코스(가양역~북한산입구).kmz", "SYMBOLID": 0, "ALTMODE": -1, "BASE": 0.0, "SNIPPET": null, "POPUPINFO": null, "HASLABEL": -1, "LABELID": 0 }, "geometry": { "type": "Point", "coordinates": [ 126.855337319, 37.560427367999978, 0.0 ] } },
{ "type": "Feature", "properties": { "NAME": "노을공원(캠핑장)", "FOLDERPATH": "둘레길 7코스(가양역~북한산입구).kmz", "SYMBOLID": 1, "ALTMODE": -1, "BASE": 0.0, "SNIPPET": null, "POPUPINFO": null, "HASLABEL": -1, "LABELID": 0 }, "geometry": { "type": "Point", "coordinates": [ 126.87679636200005, 37.575635578, 0.0 ] } },
{ "type": "Feature", "properties": { "NAME": "난지천 공원", "FOLDERPATH": "둘레길 7코스(가양역~북한산입구).kmz", "SYMBOLID": 2, "ALTMODE": -1, "BASE": 0.0, "SNIPPET": null, "POPUPINFO": null, "HASLABEL": -1, "LABELID": 0 }, "geometry": { "type": "Point", "coordinates": [ 126.886753754999972, 37.573020714, 0.0 ] } },
{ "type": "Feature", "properties": { "NAME": "하늘공원", "FOLDERPATH": "둘레길 7코스(가양역~북한산입구).kmz", "SYMBOLID": 3, "ALTMODE": -1, "BASE": 0.0, "SNIPPET": null, "POPUPINFO": null, "HASLABEL": -1, "LABELID": 0 }, "geometry": { "type": "Point", "coordinates": [ 126.888286964000031, 37.567829596000024, 0.0 ] } },
{ "type": "Feature", "properties": { "NAME": "월드컵 경기장", "FOLDERPATH": "둘레길 7코스(가양역~북한산입구).kmz", "SYMBOLID": 4, "ALTMODE": -1, "BASE": 0.0, "SNIPPET": null, "POPUPINFO": null, "HASLABEL": -1, "LABELID": 0 }, "geometry": { "type": "Point", "coordinates": [ 126.897346422000055, 37.570020369000019, 0.0 ] } },
{ "type": "Feature", "properties": { "NAME": "황금내 근린공원", "FOLDERPATH": "3.kmz", "SYMBOLID": 4, "ALTMODE": -1, "BASE": 0.0, "SNIPPET": null, "POPUPINFO": null, "HASLABEL": -1, "LABELID": 0 }, "geometry": { "type": "Point", "coordinates": [ 126.863372434999974, 37.562348665, 0.0 ] } },
{ "type": "Feature", "properties": { "NAME": "홍제천", "FOLDERPATH": "둘레길 7코스(가양역~북한산입구).kmz", "SYMBOLID": 5, "ALTMODE": -1, "BASE": 0.0, "SNIPPET": null, "POPUPINFO": null, "HASLABEL": -1, "LABELID": 0 }, "geometry": { "type": "Point", "coordinates": [ 126.903339315000039, 37.577106576, 0.0 ] } },
{ "type": "Feature", "properties": { "NAME": "수국사", "FOLDERPATH": "둘레길 7코스(가양역~북한산입구).kmz", "SYMBOLID": 6, "ALTMODE": -1, "BASE": 0.0, "SNIPPET": null, "POPUPINFO": null, "HASLABEL": -1, "LABELID": 0 }, "geometry": { "type": "Point", "coordinates": [ 126.905047640000021, 37.615896830999986, 0.0 ] } },
{ "type": "Feature", "properties": { "NAME": "은평뉴타운", "FOLDERPATH": "둘레길 7코스(가양역~북한산입구).kmz", "SYMBOLID": 7, "ALTMODE": -1, "BASE": 0.0, "SNIPPET": null, "POPUPINFO": null, "HASLABEL": -1, "LABELID": 0 }, "geometry": { "type": "Point", "coordinates": [ 126.926979175000042, 37.63426044800002, 0.0 ] } },
{ "type": "Feature", "properties": { "NAME": "서오릉", "FOLDERPATH": "둘레길 7코스(가양역~북한산입구).kmz", "SYMBOLID": 8, "ALTMODE": -1, "BASE": 0.0, "SNIPPET": null, "POPUPINFO": null, "HASLABEL": -1, "LABELID": 0 }, "geometry": { "type": "Point", "coordinates": [ 126.89746307300004, 37.630281238, 0.0 ] } },
{ "type": "Feature", "properties": { "NAME": "지하철 3호선 구파발역 3번출구", "FOLDERPATH": "둘레길 7코스(가양역~북한산입구).kmz", "SYMBOLID": 0, "ALTMODE": -1, "BASE": 0.0, "SNIPPET": null, "POPUPINFO": null, "HASLABEL": -1, "LABELID": 0 }, "geometry": { "type": "Point", "coordinates": [ 126.919322444000045, 37.635978277, 0.0 ] } },
{ "type": "Feature", "properties": { "NAME": "지하철 6호선 월드컵경기장역 3번 출구", "FOLDERPATH": "둘레길 7코스(가양역~북한산입구).kmz", "SYMBOLID": 0, "ALTMODE": -1, "BASE": 0.0, "SNIPPET": null, "POPUPINFO": null, "HASLABEL": -1, "LABELID": 0 }, "geometry": { "type": "Point", "coordinates": [ 126.899152451999953, 37.570180547, 0.0 ] } },
{ "type": "Feature", "properties": { "NAME": "지하철 6호선 디지털미디어시티역 1번 출구", "FOLDERPATH": "둘레길 7코스(가양역~북한산입구).kmz", "SYMBOLID": 0, "ALTMODE": -1, "BASE": 0.0, "SNIPPET": null, "POPUPINFO": null, "HASLABEL": -1, "LABELID": 0 }, "geometry": { "type": "Point", "coordinates": [ 126.901874616999976, 37.576279049, 0.0 ] } },
{ "type": "Feature", "properties": { "NAME": "코스 7-1 가양대교 시작점", "FOLDERPATH": "둘레길 7코스(가양역~북한산입구).kmz", "SYMBOLID": 9, "ALTMODE": -1, "BASE": 0.0, "SNIPPET": null, "POPUPINFO": null, "HASLABEL": -1, "LABELID": 0 }, "geometry": { "type": "Point", "coordinates": [ 126.856566248000036, 37.563774106999972, 0.0 ] } },
{ "type": "Feature", "properties": { "NAME": "코스 7-2 증산체육공원 화장실 앞", "FOLDERPATH": "둘레길 7코스(가양역~북한산입구).kmz", "SYMBOLID": 9, "ALTMODE": -1, "BASE": 0.0, "SNIPPET": null, "POPUPINFO": null, "HASLABEL": -1, "LABELID": 0 }, "geometry": { "type": "Point", "coordinates": [ 126.902692162999983, 37.58518873700001, 0.0 ] } },
{ "type": "Feature", "properties": { "NAME": "코스 7-3 애봉산 끝부분", "FOLDERPATH": "둘레길 7코스(가양역~북한산입구).kmz", "SYMBOLID": 9, "ALTMODE": -1, "BASE": 0.0, "SNIPPET": null, "POPUPINFO": null, "HASLABEL": -1, "LABELID": 0 }, "geometry": { "type": "Point", "coordinates": [ 126.914852387999986, 37.635720557000013, 0.0 ] } },
{ "type": "Feature", "properties": { "NAME": "선림사", "FOLDERPATH": "Layers\/탐방로", "SYMBOLID": 0, "ALTMODE": -1, "BASE": 0.0, "SNIPPET": null, "POPUPINFO": null, "HASLABEL": 0, "LABELID": -1 }, "geometry": { "type": "Point", "coordinates": [ 126.937147049000032, 37.62743597399998, 0.0 ] } },
{ "type": "Feature", "properties": { "NAME": "북한산 생태공원", "FOLDERPATH": "Layers\/탐방로", "SYMBOLID": 1, "ALTMODE": -1, "BASE": 0.0, "SNIPPET": null, "POPUPINFO": null, "HASLABEL": 0, "LABELID": -1 }, "geometry": { "type": "Point", "coordinates": [ 126.940050112, 37.611026230999983, 0.0 ] } },
{ "type": "Feature", "properties": { "NAME": "탕춘대성 암문", "FOLDERPATH": "Layers\/탐방로", "SYMBOLID": 2, "ALTMODE": -1, "BASE": 0.0, "SNIPPET": null, "POPUPINFO": null, "HASLABEL": 0, "LABELID": -1 }, "geometry": { "type": "Point", "coordinates": [ 126.951414760000034, 37.608172285000023, 0.0 ] } },
{ "type": "Feature", "properties": { "NAME": "불심원", "FOLDERPATH": "Layers\/탐방로", "SYMBOLID": 3, "ALTMODE": -1, "BASE": 0.0, "SNIPPET": null, "POPUPINFO": null, "HASLABEL": 0, "LABELID": -1 }, "geometry": { "type": "Point", "coordinates": [ 126.953745101999971, 37.609115187999976, 0.0 ] } },
{ "type": "Feature", "properties": { "NAME": "5.연화정사", "FOLDERPATH": "Layers\/탐방로", "SYMBOLID": 4, "ALTMODE": -1, "BASE": 0.0, "SNIPPET": null, "POPUPINFO": null, "HASLABEL": 0, "LABELID": -1 }, "geometry": { "type": "Point", "coordinates": [ 126.979693244000032, 37.614274426, 0.0 ] } },
{ "type": "Feature", "properties": { "NAME": "6.성북생태체험관", "FOLDERPATH": "Layers\/탐방로", "SYMBOLID": 5, "ALTMODE": -1, "BASE": 0.0, "SNIPPET": null, "POPUPINFO": null, "HASLABEL": 0, "LABELID": -1 }, "geometry": { "type": "Point", "coordinates": [ 127.006885684000054, 37.62098024, 0.0 ] } },
{ "type": "Feature", "properties": { "NAME": "7.빨래골지킴터", "FOLDERPATH": "Layers\/탐방로", "SYMBOLID": 6, "ALTMODE": -1, "BASE": 0.0, "SNIPPET": null, "POPUPINFO": null, "HASLABEL": 0, "LABELID": -1 }, "geometry": { "type": "Point", "coordinates": [ 127.00881997, 37.627346744000022, 0.0 ] } },
{ "type": "Feature", "properties": { "NAME": "8.이준열사묘소", "FOLDERPATH": "Layers\/탐방로", "SYMBOLID": 7, "ALTMODE": -1, "BASE": 0.0, "SNIPPET": null, "POPUPINFO": null, "HASLABEL": 0, "LABELID": -1 }, "geometry": { "type": "Point", "coordinates": [ 127.001098754000054, 37.642357791999984, 0.0 ] } },
{ "type": "Feature", "properties": { "NAME": "9.419국립묘지", "FOLDERPATH": "Layers\/탐방로", "SYMBOLID": 8, "ALTMODE": -1, "BASE": 0.0, "SNIPPET": null, "POPUPINFO": null, "HASLABEL": 0, "LABELID": -1 }, "geometry": { "type": "Point", "coordinates": [ 127.006492751, 37.649442298, 0.0 ] } },
{ "type": "Feature", "properties": { "NAME": "10.봉황각", "FOLDERPATH": "Layers\/탐방로", "SYMBOLID": 9, "ALTMODE": -1, "BASE": 0.0, "SNIPPET": null, "POPUPINFO": null, "HASLABEL": 0, "LABELID": -1 }, "geometry": { "type": "Point", "coordinates": [ 127.006763655999976, 37.660896596999976, 0.0 ] } },
{ "type": "Feature", "properties": { "NAME": "지하철 1호선, 7호선 도봉산역 1번출구", "FOLDERPATH": "Layers\/탐방로", "SYMBOLID": 10, "ALTMODE": -1, "BASE": 0.0, "SNIPPET": null, "POPUPINFO": null, "HASLABEL": 0, "LABELID": -1 }, "geometry": { "type": "Point", "coordinates": [ 127.046254568, 37.688939974, 0.0 ] } },
{ "type": "Feature", "properties": { "NAME": "지하철 3호선 구파발역 3번 출구", "FOLDERPATH": "Layers\/탐방로", "SYMBOLID": 10, "ALTMODE": -1, "BASE": 0.0, "SNIPPET": null, "POPUPINFO": null, "HASLABEL": -1, "LABELID": 0 }, "geometry": { "type": "Point", "coordinates": [ 126.918992086, 37.63591839999998, 0.0 ] } },
{ "type": "Feature", "properties": { "NAME": "코스 8-1 선림사 옆", "FOLDERPATH": "Layers\/탐방로", "SYMBOLID": 11, "ALTMODE": -1, "BASE": 0.0, "SNIPPET": null, "POPUPINFO": null, "HASLABEL": -1, "LABELID": 0 }, "geometry": { "type": "Point", "coordinates": [ 126.936856657000021, 37.627832984, 0.0 ] } },
{ "type": "Feature", "properties": { "NAME": "코스 8-2 옛성길 시작점", "FOLDERPATH": "Layers\/탐방로", "SYMBOLID": 11, "ALTMODE": -1, "BASE": 0.0, "SNIPPET": null, "POPUPINFO": null, "HASLABEL": -1, "LABELID": 0 }, "geometry": { "type": "Point", "coordinates": [ 126.939481501000046, 37.61266373, 0.0 ] } },
{ "type": "Feature", "properties": { "NAME": "코스 8-3 명상길 시작점", "FOLDERPATH": "Layers\/탐방로", "SYMBOLID": 11, "ALTMODE": -1, "BASE": 0.0, "SNIPPET": null, "POPUPINFO": null, "HASLABEL": -1, "LABELID": 0 }, "geometry": { "type": "Point", "coordinates": [ 126.982206548000022, 37.612941864, 0.0 ] } },
{ "type": "Feature", "properties": { "NAME": "코스 8-4 흰구름길 시작점", "FOLDERPATH": "Layers\/탐방로", "SYMBOLID": 11, "ALTMODE": -1, "BASE": 0.0, "SNIPPET": null, "POPUPINFO": null, "HASLABEL": -1, "LABELID": 0 }, "geometry": { "type": "Point", "coordinates": [ 127.009740065999949, 37.622870915000021, 0.0 ] } },
{ "type": "Feature", "properties": { "NAME": "코스 8-5 왕실묘역 시작점", "FOLDERPATH": "Layers\/탐방로", "SYMBOLID": 11, "ALTMODE": -1, "BASE": 0.0, "SNIPPET": null, "POPUPINFO": null, "HASLABEL": -1, "LABELID": 0 }, "geometry": { "type": "Point", "coordinates": [ 127.016475498999966, 37.661672259, 0.0 ] } },
{ "type": "Feature", "properties": { "NAME": "코스 8-6 도봉탐방지원센터 옆", "FOLDERPATH": "Layers\/탐방로", "SYMBOLID": 11, "ALTMODE": -1, "BASE": 0.0, "SNIPPET": null, "POPUPINFO": null, "HASLABEL": -1, "LABELID": 0 }, "geometry": { "type": "Point", "coordinates": [ 127.036363367000035, 37.686064077000026, 0.0 ] } },
{ "type": "Feature", "properties": { "NAME": "코스 3-2 광진교 초입", "FOLDERPATH": "3코스 스탬프", "SYMBOLID": 12, "ALTMODE": -1, "BASE": 0.0, "SNIPPET": null, "POPUPINFO": null, "HASLABEL": -1, "LABELID": 0 }, "geometry": { "type": "Point", "coordinates": [ 127.109024536999982, 37.545986100999983, 0.0 ] } },
{ "type": "Feature", "properties": { "NAME": "3-2 일자산 초입(고덕역 4번 출구 260m 앞)", "FOLDERPATH": "3코스 스탬프", "SYMBOLID": 12, "ALTMODE": -1, "BASE": 0.0, "SNIPPET": null, "POPUPINFO": null, "HASLABEL": -1, "LABELID": 0 }, "geometry": { "type": "Point", "coordinates": [ 127.156872804000045, 37.555305998, 0.0 ] } },
{ "type": "Feature", "properties": { "NAME": "코스 3-4 탄천 끝부분", "FOLDERPATH": "3코스 스탬프", "SYMBOLID": 12, "ALTMODE": -1, "BASE": 0.0, "SNIPPET": null, "POPUPINFO": null, "HASLABEL": -1, "LABELID": 0 }, "geometry": { "type": "Point", "coordinates": [ 127.106871962000014, 37.488294302999975, 0.0 ] } },
{ "type": "Feature", "properties": { "NAME": "지하철 3호선, 분당선 수서역 6번 출구", "FOLDERPATH": "1.kmz", "SYMBOLID": 0, "ALTMODE": -1, "BASE": 0.0, "SNIPPET": null, "POPUPINFO": null, "HASLABEL": -1, "LABELID": 0 }, "geometry": { "type": "Point", "coordinates": [ 127.101316291999979, 37.487141081, 0.0 ] } },
{ "type": "Feature", "properties": { "NAME": "지하철 분당선 양재시민의숲역", "FOLDERPATH": "1.kmz", "SYMBOLID": 0, "ALTMODE": -1, "BASE": 0.0, "SNIPPET": null, "POPUPINFO": null, "HASLABEL": -1, "LABELID": 0 }, "geometry": { "type": "Point", "coordinates": [ 127.038275558, 37.47056494200001, 0.0 ] } },
{ "type": "Feature", "properties": { "NAME": "불국사", "FOLDERPATH": "1.kmz", "SYMBOLID": 1, "ALTMODE": -1, "BASE": 0.0, "SNIPPET": null, "POPUPINFO": null, "HASLABEL": -1, "LABELID": 0 }, "geometry": { "type": "Point", "coordinates": [ 127.075045899999964, 37.477448356000025, 0.0 ] } },
{ "type": "Feature", "properties": { "NAME": "매헌 윤봉길의사 기념관", "FOLDERPATH": "1.kmz", "SYMBOLID": 2, "ALTMODE": -1, "BASE": 0.0, "SNIPPET": null, "POPUPINFO": null, "HASLABEL": -1, "LABELID": 0 }, "geometry": { "type": "Point", "coordinates": [ 127.03659474799997, 37.469789403999982, 0.0 ] } },
{ "type": "Feature", "properties": { "NAME": "코스 3-3 방이동 생태경관보전지역 사무소 앞", "FOLDERPATH": "3코스 스탬프", "SYMBOLID": 12, "ALTMODE": -1, "BASE": 0.0, "SNIPPET": null, "POPUPINFO": null, "HASLABEL": -1, "LABELID": 0 }, "geometry": { "type": "Point", "coordinates": [ 127.140417555, 37.512393535, 0.0 ] } },
{ "type": "Feature", "properties": { "NAME": "양재 시민의 숲", "FOLDERPATH": "1.kmz", "SYMBOLID": 3, "ALTMODE": -1, "BASE": 0.0, "SNIPPET": null, "POPUPINFO": null, "HASLABEL": -1, "LABELID": 0 }, "geometry": { "type": "Point", "coordinates": [ 127.03539911300004, 37.471403361, 0.0 ] } },
{ "type": "Feature", "properties": { "NAME": "문화예술공원", "FOLDERPATH": "1.kmz", "SYMBOLID": 4, "ALTMODE": -1, "BASE": 0.0, "SNIPPET": null, "POPUPINFO": null, "HASLABEL": -1, "LABELID": 0 }, "geometry": { "type": "Point", "coordinates": [ 127.03052977599998, 37.468076451, 0.0 ] } },
{ "type": "Feature", "properties": { "NAME": "대성사", "FOLDERPATH": "1.kmz", "SYMBOLID": 5, "ALTMODE": -1, "BASE": 0.0, "SNIPPET": null, "POPUPINFO": null, "HASLABEL": -1, "LABELID": 0 }, "geometry": { "type": "Point", "coordinates": [ 127.021879782000042, 37.473733598000024, 0.0 ] } },
{ "type": "Feature", "properties": { "NAME": "대원사", "FOLDERPATH": "1.kmz", "SYMBOLID": 6, "ALTMODE": -1, "BASE": 0.0, "SNIPPET": null, "POPUPINFO": null, "HASLABEL": -1, "LABELID": 0 }, "geometry": { "type": "Point", "coordinates": [ 126.987556591000043, 37.472898095, 0.0 ] } },
{ "type": "Feature", "properties": { "NAME": "지하철 2호선, 4호선 사당역 4번출구", "FOLDERPATH": "1.kmz", "SYMBOLID": 0, "ALTMODE": -1, "BASE": 0.0, "SNIPPET": null, "POPUPINFO": null, "HASLABEL": -1, "LABELID": 0 }, "geometry": { "type": "Point", "coordinates": [ 126.981570511999962, 37.474987225, 0.0 ] } },
{ "type": "Feature", "properties": { "NAME": "헌인릉", "FOLDERPATH": "1.kmz", "SYMBOLID": 7, "ALTMODE": -1, "BASE": 0.0, "SNIPPET": null, "POPUPINFO": null, "HASLABEL": -1, "LABELID": 0 }, "geometry": { "type": "Point", "coordinates": [ 127.075074641000015, 37.46709385600002, 0.0 ] } },
{ "type": "Feature", "properties": { "NAME": "우면산 자연생태공원", "FOLDERPATH": "1.kmz", "SYMBOLID": 7, "ALTMODE": -1, "BASE": 0.0, "SNIPPET": null, "POPUPINFO": null, "HASLABEL": -1, "LABELID": 0 }, "geometry": { "type": "Point", "coordinates": [ 127.019050333, 37.467425178999974, 0.0 ] } },
{ "type": "Feature", "properties": { "NAME": "서울특별시 인재개발원", "FOLDERPATH": "1.kmz", "SYMBOLID": 7, "ALTMODE": -1, "BASE": 0.0, "SNIPPET": null, "POPUPINFO": null, "HASLABEL": -1, "LABELID": 0 }, "geometry": { "type": "Point", "coordinates": [ 127.020417902999952, 37.480055596999989, 0.0 ] } },
{ "type": "Feature", "properties": { "NAME": "코스 4-1 대모산 초입", "FOLDERPATH": "1.kmz", "SYMBOLID": 8, "ALTMODE": -1, "BASE": 0.0, "SNIPPET": null, "POPUPINFO": null, "HASLABEL": -1, "LABELID": 0 }, "geometry": { "type": "Point", "coordinates": [ 127.1019824, 37.486634805999984, 0.0 ] } },
{ "type": "Feature", "properties": { "NAME": "코스 4-2 양재시민의숲 안내소 옆", "FOLDERPATH": "1.kmz", "SYMBOLID": 8, "ALTMODE": -1, "BASE": 0.0, "SNIPPET": null, "POPUPINFO": null, "HASLABEL": -1, "LABELID": 0 }, "geometry": { "type": "Point", "coordinates": [ 127.037166180999975, 37.469205615000021, 0.0 ] } },
{ "type": "Feature", "properties": { "NAME": "코스 4-3 우면산 끝부분", "FOLDERPATH": "1.kmz", "SYMBOLID": 8, "ALTMODE": -1, "BASE": 0.0, "SNIPPET": null, "POPUPINFO": null, "HASLABEL": -1, "LABELID": 0 }, "geometry": { "type": "Point", "coordinates": [ 126.986551929000029, 37.473542017, 0.0 ] } },
{ "type": "Feature", "properties": { "NAME": "지하철 4호선 사당역 4번출구", "FOLDERPATH": "2.kmz", "SYMBOLID": 0, "ALTMODE": -1, "BASE": 0.0, "SNIPPET": null, "POPUPINFO": null, "HASLABEL": -1, "LABELID": 0 }, "geometry": { "type": "Point", "coordinates": [ 126.98155405600005, 37.476429180000025, 0.0 ] } },
{ "type": "Feature", "properties": { "NAME": "관음사", "FOLDERPATH": "2.kmz", "SYMBOLID": 1, "ALTMODE": -1, "BASE": 0.0, "SNIPPET": null, "POPUPINFO": null, "HASLABEL": -1, "LABELID": 0 }, "geometry": { "type": "Point", "coordinates": [ 126.977056227000048, 37.467293797000025, 0.0 ] } },
{ "type": "Feature", "properties": { "NAME": "낙성대공원", "FOLDERPATH": "2.kmz", "SYMBOLID": 2, "ALTMODE": -1, "BASE": 0.0, "SNIPPET": null, "POPUPINFO": null, "HASLABEL": -1, "LABELID": 0 }, "geometry": { "type": "Point", "coordinates": [ 126.959773864, 37.471197648999976, 0.0 ] } },
{ "type": "Feature", "properties": { "NAME": "서울대학교", "FOLDERPATH": "2.kmz", "SYMBOLID": 3, "ALTMODE": -1, "BASE": 0.0, "SNIPPET": null, "POPUPINFO": null, "HASLABEL": -1, "LABELID": 0 }, "geometry": { "type": "Point", "coordinates": [ 126.948330929, 37.466575756, 0.0 ] } },
{ "type": "Feature", "properties": { "NAME": "약수암", "FOLDERPATH": "2.kmz", "SYMBOLID": 4, "ALTMODE": -1, "BASE": 0.0, "SNIPPET": null, "POPUPINFO": null, "HASLABEL": -1, "LABELID": 0 }, "geometry": { "type": "Point", "coordinates": [ 126.943196371, 37.46128687700002, 0.0 ] } },
{ "type": "Feature", "properties": { "NAME": "천주교삼성상성지", "FOLDERPATH": "2.kmz", "SYMBOLID": 5, "ALTMODE": -1, "BASE": 0.0, "SNIPPET": null, "POPUPINFO": null, "HASLABEL": -1, "LABELID": 0 }, "geometry": { "type": "Point", "coordinates": [ 126.929427428000054, 37.456942652, 0.0 ] } },
{ "type": "Feature", "properties": { "NAME": "호압사", "FOLDERPATH": "2.kmz", "SYMBOLID": 6, "ALTMODE": -1, "BASE": 0.0, "SNIPPET": null, "POPUPINFO": null, "HASLABEL": -1, "LABELID": 0 }, "geometry": { "type": "Point", "coordinates": [ 126.925500414, 37.452419422, 0.0 ] } },
{ "type": "Feature", "properties": { "NAME": "한우물 및 주변산성지", "FOLDERPATH": "2.kmz", "SYMBOLID": 7, "ALTMODE": -1, "BASE": 0.0, "SNIPPET": null, "POPUPINFO": null, "HASLABEL": -1, "LABELID": 0 }, "geometry": { "type": "Point", "coordinates": [ 126.922498691999976, 37.446084305, 0.0 ] } },
{ "type": "Feature", "properties": { "NAME": "지하철 1호선 석수역 1번출구", "FOLDERPATH": "2.kmz", "SYMBOLID": 0, "ALTMODE": -1, "BASE": 0.0, "SNIPPET": null, "POPUPINFO": null, "HASLABEL": -1, "LABELID": 0 }, "geometry": { "type": "Point", "coordinates": [ 126.902522052, 37.434189818, 0.0 ] } },
{ "type": "Feature", "properties": { "NAME": "코스 5-1 관음사 입구", "FOLDERPATH": "2.kmz", "SYMBOLID": 8, "ALTMODE": -1, "BASE": 0.0, "SNIPPET": null, "POPUPINFO": null, "HASLABEL": -1, "LABELID": 0 }, "geometry": { "type": "Point", "coordinates": [ 126.978365058, 37.469307736000019, 0.0 ] } },
{ "type": "Feature", "properties": { "NAME": "코스 5-2 관악산 안내소 앞", "FOLDERPATH": "2.kmz", "SYMBOLID": 8, "ALTMODE": -1, "BASE": 0.0, "SNIPPET": null, "POPUPINFO": null, "HASLABEL": -1, "LABELID": 0 }, "geometry": { "type": "Point", "coordinates": [ 126.946748048000018, 37.467575258000011, 0.0 ] } },
{ "type": "Feature", "properties": { "NAME": "코스 5-3 관악산 끝부분", "FOLDERPATH": "2.kmz", "SYMBOLID": 8, "ALTMODE": -1, "BASE": 0.0, "SNIPPET": null, "POPUPINFO": null, "HASLABEL": -1, "LABELID": 0 }, "geometry": { "type": "Point", "coordinates": [ 126.906606718000035, 37.433909686999982, 0.0 ] } },
{ "type": "Feature", "properties": { "NAME": "지하철 1호선 석수역 2번출구", "FOLDERPATH": "3.kmz", "SYMBOLID": 0, "ALTMODE": -1, "BASE": 0.0, "SNIPPET": null, "POPUPINFO": null, "HASLABEL": -1, "LABELID": 0 }, "geometry": { "type": "Point", "coordinates": [ 126.902468153999962, 37.434335996000016, 0.0 ] } },
{ "type": "Feature", "properties": { "NAME": "안양천", "FOLDERPATH": "3.kmz", "SYMBOLID": 1, "ALTMODE": -1, "BASE": 0.0, "SNIPPET": null, "POPUPINFO": null, "HASLABEL": -1, "LABELID": 0 }, "geometry": { "type": "Point", "coordinates": [ 126.876075591000017, 37.477889791, 0.0 ] } },
{ "type": "Feature", "properties": { "NAME": "구일역", "FOLDERPATH": "3.kmz", "SYMBOLID": 0, "ALTMODE": -1, "BASE": 0.0, "SNIPPET": null, "POPUPINFO": null, "HASLABEL": -1, "LABELID": 0 }, "geometry": { "type": "Point", "coordinates": [ 126.870776342999989, 37.496754375000023, 0.0 ] } },
{ "type": "Feature", "properties": { "NAME": "도림천역", "FOLDERPATH": "3.kmz", "SYMBOLID": 0, "ALTMODE": -1, "BASE": 0.0, "SNIPPET": null, "POPUPINFO": null, "HASLABEL": -1, "LABELID": 0 }, "geometry": { "type": "Point", "coordinates": [ 126.882600564999962, 37.514606519999973, 0.0 ] } },
{ "type": "Feature", "properties": { "NAME": "목동종합운동장", "FOLDERPATH": "3.kmz", "SYMBOLID": 2, "ALTMODE": -1, "BASE": 0.0, "SNIPPET": null, "POPUPINFO": null, "HASLABEL": -1, "LABELID": 0 }, "geometry": { "type": "Point", "coordinates": [ 126.882415877999961, 37.530597038999986, 0.0 ] } },
{ "type": "Feature", "properties": { "NAME": "양화교폭포", "FOLDERPATH": "3.kmz", "SYMBOLID": 3, "ALTMODE": -1, "BASE": 0.0, "SNIPPET": null, "POPUPINFO": null, "HASLABEL": -1, "LABELID": 0 }, "geometry": { "type": "Point", "coordinates": [ 126.882598592000022, 37.548407301, 0.0 ] } },
{ "type": "Feature", "properties": { "NAME": "지하철 9호선 가양역 4번출구", "FOLDERPATH": "3.kmz", "SYMBOLID": 0, "ALTMODE": -1, "BASE": 0.0, "SNIPPET": null, "POPUPINFO": null, "HASLABEL": -1, "LABELID": 0 }, "geometry": { "type": "Point", "coordinates": [ 126.855697353999972, 37.561416142999974, 0.0 ] } },
{ "type": "Feature", "properties": { "NAME": "코스 6-1 석수역 앞", "FOLDERPATH": "3.kmz", "SYMBOLID": 5, "ALTMODE": -1, "BASE": 0.0, "SNIPPET": null, "POPUPINFO": null, "HASLABEL": -1, "LABELID": 0 }, "geometry": { "type": "Point", "coordinates": [ 126.90205442599995, 37.434282037, 0.0 ] } },
{ "type": "Feature", "properties": { "NAME": "코스 6-2 구일역 앞", "FOLDERPATH": "3.kmz", "SYMBOLID": 5, "ALTMODE": -1, "BASE": 0.0, "SNIPPET": null, "POPUPINFO": null, "HASLABEL": -1, "LABELID": 0 }, "geometry": { "type": "Point", "coordinates": [ 126.870947570999988, 37.495907794, 0.0 ] } },
{ "type": "Feature", "properties": { "NAME": "코스 6-3 황금내 근린공원 화장실 앞", "FOLDERPATH": "3.kmz", "SYMBOLID": 5, "ALTMODE": -1, "BASE": 0.0, "SNIPPET": null, "POPUPINFO": null, "HASLABEL": -1, "LABELID": 0 }, "geometry": { "type": "Point", "coordinates": [ 126.864612311999963, 37.561941869, 0.0 ] } }
]
}
