{
"type": "FeatureCollection",
"name": "hydsk_p",
"crs": { "type": "name", "properties": { "name": "urn:ogc:def:crs:OGC:1.3:CRS84" } },
"features": [
{ "type": "Feature", "properties": { "NAME": "혜화문(홍화문)", "POPUPINFO": null }, "geometry": { "type": "Point", "coordinates": [ 127.003709787000048, 37.587889239, 0.0 ] } },
{ "type": "Feature", "properties": { "NAME": "낙산공원", "POPUPINFO": null }, "geometry": { "type": "Point", "coordinates": [ 127.008308421000038, 37.580950808000011, 0.0 ] } },
{ "type": "Feature", "properties": { "NAME": "흥인지문", "POPUPINFO": null }, "geometry": { "type": "Point", "coordinates": [ 127.009505986000022, 37.571190676000015, 0.0 ] } },
{ "type": "Feature", "properties": { "NAME": "한성대입구역 지하철 4호선", "POPUPINFO": "4번출구" }, "geometry": { "type": "Point", "coordinates": [ 127.005886262999979, 37.588388805000022, 0.0 ] } },
{ "type": "Feature", "properties": { "NAME": "동대문역 지하철 1,4호선", "POPUPINFO": "5, 10번 출구" }, "geometry": { "type": "Point", "coordinates": [ 127.010510251000028, 37.57162702, 0.0 ] } },
{ "type": "Feature", "properties": { "NAME": "혜화역 지하철 4호선", "POPUPINFO": null }, "geometry": { "type": "Point", "coordinates": [ 127.000820829999952, 37.585144533, 0.0 ] } },
{ "type": "Feature", "properties": { "NAME": "동대입구역 지하철 3호선", "POPUPINFO": "5번 출구 장충체육관" }, "geometry": { "type": "Point", "coordinates": [ 127.00636298500001, 37.558802445000026, 0.0 ] } },
{ "type": "Feature", "properties": { "NAME": "장충체육관", "POPUPINFO": null }, "geometry": { "type": "Point", "coordinates": [ 127.007113963000052, 37.558181650999984, 0.0 ] } },
{ "type": "Feature", "properties": { "NAME": "국립극장", "POPUPINFO": null }, "geometry": { "type": "Point", "coordinates": [ 127.000124904000018, 37.552286932000015, 0.0 ] } },
{ "type": "Feature", "properties": { "NAME": "남산N서울타워", "POPUPINFO": null }, "geometry": { "type": "Point", "coordinates": [ 126.988611903, 37.551483292, 0.0 ] } },
{ "type": "Feature", "properties": { "NAME": "백범광장", "POPUPINFO": null }, "geometry": { "type": "Point", "coordinates": [ 126.979786527999977, 37.555078574999982, 0.0 ] } },
{ "type": "Feature", "properties": { "NAME": "국립극장", "POPUPINFO": "02, 03, 05번 남산순환버스" }, "geometry": { "type": "Point", "coordinates": [ 127.000220634000016, 37.55157634, 0.0 ] } },
{ "type": "Feature", "properties": { "NAME": "남산북측순환로입구", "POPUPINFO": "02, 03, 05번 남산순환버스" }, "geometry": { "type": "Point", "coordinates": [ 126.998399952, 37.549947264000025, 0.0 ] } },
{ "type": "Feature", "properties": { "NAME": "남산N서울타워", "POPUPINFO": "02, 03, 05번 남산순환버스" }, "geometry": { "type": "Point", "coordinates": [ 126.991062166, 37.551022451999984, 0.0 ] } },
{ "type": "Feature", "properties": { "NAME": "창의문", "POPUPINFO": null }, "geometry": { "type": "Point", "coordinates": [ 126.96647714300002, 37.592602704, 0.0 ] } },
{ "type": "Feature", "properties": { "NAME": "숙정문", "POPUPINFO": null }, "geometry": { "type": "Point", "coordinates": [ 126.981057591999956, 37.595658387000014, 0.0 ] } },
{ "type": "Feature", "properties": { "NAME": "말바위안내소", "POPUPINFO": null }, "geometry": { "type": "Point", "coordinates": [ 126.983286163, 37.594791879000013, 0.0 ] } },
{ "type": "Feature", "properties": { "NAME": "와룡공원", "POPUPINFO": null }, "geometry": { "type": "Point", "coordinates": [ 126.990096687, 37.591283245999989, 0.0 ] } },
{ "type": "Feature", "properties": { "NAME": "혜화문(홍화문)", "POPUPINFO": null }, "geometry": { "type": "Point", "coordinates": [ 127.003709787000048, 37.587889239, 0.0 ] } },
{ "type": "Feature", "properties": { "NAME": "한성대입구역 지하철 4호선", "POPUPINFO": "5번출구" }, "geometry": { "type": "Point", "coordinates": [ 127.005886262999979, 37.588388805000022, 0.0 ] } },
{ "type": "Feature", "properties": { "NAME": "자하문고개?윤동주시인의언덕", "POPUPINFO": "ㆍ경복궁역(3호선) 3번 출구 → 지선(초록)버스 7212, 1020, 7022번 버스(자하문고개.윤동주시인의언덕) → 도보 2분 → 창의문" }, "geometry": { "type": "Point", "coordinates": [ 126.967267814000024, 37.592242526, 0.0 ] } },
{ "type": "Feature", "properties": { "NAME": "혜화역 지하철 4호선", "POPUPINFO": "4번 출구 → 혜화문" }, "geometry": { "type": "Point", "coordinates": [ 127.000753953999947, 37.585225673000025, 0.0 ] } },
{ "type": "Feature", "properties": { "NAME": "한성대입구역 지하철 4호선", "POPUPINFO": "4번출구" }, "geometry": { "type": "Point", "coordinates": [ 127.005886262999979, 37.588388805000022, 0.0 ] } },
{ "type": "Feature", "properties": { "NAME": "혜화문(홍화문)", "POPUPINFO": null }, "geometry": { "type": "Point", "coordinates": [ 127.003709787000048, 37.587889239, 0.0 ] } },
{ "type": "Feature", "properties": { "NAME": "낙산공원", "POPUPINFO": null }, "geometry": { "type": "Point", "coordinates": [ 127.008308421000038, 37.580950808000011, 0.0 ] } },
{ "type": "Feature", "properties": { "NAME": "흥인지문", "POPUPINFO": null }, "geometry": { "type": "Point", "coordinates": [ 127.009505986000022, 37.571190676000015, 0.0 ] } },
{ "type": "Feature", "properties": { "NAME": "혜화역 지하철 4호선", "POPUPINFO": null }, "geometry": { "type": "Point", "coordinates": [ 127.000820829999952, 37.585144533, 0.0 ] } },
{ "type": "Feature", "properties": { "NAME": "백범광장", "POPUPINFO": null }, "geometry": { "type": "Point", "coordinates": [ 126.97970017, 37.555043867, 0.0 ] } },
{ "type": "Feature", "properties": { "NAME": "숭례문", "POPUPINFO": null }, "geometry": { "type": "Point", "coordinates": [ 126.975309911999943, 37.56013985200002, 0.0 ] } },
{ "type": "Feature", "properties": { "NAME": "돈의문터(서대문) 강북삼성병원", "POPUPINFO": null }, "geometry": { "type": "Point", "coordinates": [ 126.968732305, 37.56827539, 0.0 ] } },
{ "type": "Feature", "properties": { "NAME": "회현역 지하철 4호선", "POPUPINFO": "4번 출구 → 숭례문" }, "geometry": { "type": "Point", "coordinates": [ 126.978151441000023, 37.558442531000026, 0.0 ] } },
{ "type": "Feature", "properties": { "NAME": "서울역 지하철 1, 4호선", "POPUPINFO": "8번 출구 → 숭례문" }, "geometry": { "type": "Point", "coordinates": [ 126.971416802000022, 37.555114226, 0.0 ] } },
{ "type": "Feature", "properties": { "NAME": "시청역 지하철 1, 2호선", "POPUPINFO": "8번 출구 → 숭례문\n2번 출구 → 돈의문 터·강북삼성병원" }, "geometry": { "type": "Point", "coordinates": [ 126.976337985999976, 37.564960201000019, 0.0 ] } },
{ "type": "Feature", "properties": { "NAME": "돈의문터(서대문) 강북삼성병원", "POPUPINFO": null }, "geometry": { "type": "Point", "coordinates": [ 126.968677896000031, 37.568202473999975, 0.0 ] } },
{ "type": "Feature", "properties": { "NAME": "종로문화체육센터", "POPUPINFO": null }, "geometry": { "type": "Point", "coordinates": [ 126.964556012, 37.574187658000028, 0.0 ] } },
{ "type": "Feature", "properties": { "NAME": "사직근린공원", "POPUPINFO": null }, "geometry": { "type": "Point", "coordinates": [ 126.967721854000047, 37.575657712, 0.0 ] } },
{ "type": "Feature", "properties": { "NAME": "창의문", "POPUPINFO": null }, "geometry": { "type": "Point", "coordinates": [ 126.96647714300002, 37.592602704, 0.0 ] } },
{ "type": "Feature", "properties": { "NAME": "자하문고개?윤동주시인의언덕", "POPUPINFO": "창의문 → 도보 2분 → 지선(초록)버스 7212, 1020, 7022번 버스(자하문고개.윤동주시인의언덕) → 경복궁역(3호선)" }, "geometry": { "type": "Point", "coordinates": [ 126.967267814000024, 37.592242526, 0.0 ] } },
{ "type": "Feature", "properties": { "NAME": "동대문역 지하철 1,4호선", "POPUPINFO": "5, 10번 출구" }, "geometry": { "type": "Point", "coordinates": [ 127.010510251000028, 37.57162702, 0.0 ] } },
{ "type": "Feature", "properties": { "NAME": "서대문역 지하철 5호선", "POPUPINFO": "4번 출구 → 돈의문 터·강북삼성병원" }, "geometry": { "type": "Point", "coordinates": [ 126.966263094000055, 37.565536936, 0.0 ] } },
{ "type": "Feature", "properties": { "NAME": "서대문역 지하철 5호선", "POPUPINFO": "4번 출구 → 돈의문 터·강북삼성병원" }, "geometry": { "type": "Point", "coordinates": [ 126.96645231499997, 37.565742404, 0.0 ] } },
{ "type": "Feature", "properties": { "NAME": "경복궁역 지하철 3호선", "POPUPINFO": "1번 출구 사직근린공원" }, "geometry": { "type": "Point", "coordinates": [ 126.97243354, 37.57596157, 0.0 ] } },
{ "type": "Feature", "properties": { "NAME": "흥인지문(동대문)", "POPUPINFO": null }, "geometry": { "type": "Point", "coordinates": [ 127.009695830000055, 37.571098431, 0.0 ] } },
{ "type": "Feature", "properties": { "NAME": "광희문", "POPUPINFO": null }, "geometry": { "type": "Point", "coordinates": [ 127.00998752199996, 37.564362104, 0.0 ] } },
{ "type": "Feature", "properties": { "NAME": "장충체육관", "POPUPINFO": null }, "geometry": { "type": "Point", "coordinates": [ 127.007011411, 37.558127952, 0.0 ] } },
{ "type": "Feature", "properties": { "NAME": "동대문역 1, 4호선", "POPUPINFO": "6, 7번 출구" }, "geometry": { "type": "Point", "coordinates": [ 127.00967501599996, 37.571426488999975, 0.0 ] } },
{ "type": "Feature", "properties": { "NAME": "동대입구역 지하철 3호선", "POPUPINFO": "5번 출구 장충체육관" }, "geometry": { "type": "Point", "coordinates": [ 127.00636298500001, 37.558802445000026, 0.0 ] } },
{ "type": "Feature", "properties": { "NAME": "동대문문화역사공원역 지하철 2, 4, 5호선", "POPUPINFO": "3번출구 → 광희문" }, "geometry": { "type": "Point", "coordinates": [ 127.008836641000016, 37.565779232000011, 0.0 ] } }
]
}
